{"version": 0.6, "generator": "Overpass API 0.7.62.11 87bfad18", "osm3s": {"timestamp_osm_base": "2026-05-06T10:56:44Z", "copyright": "The data included in this document is from www.openstreetmap.org. The data is made available under ODbL."}, "elements": [{"type": "node", "id": 6609166890, "lat": 35.9223725, "lon": 140.6384642, "tags": {"amenity": "atm", "operator": "\u7b51\u6ce2\u9280\u884c"}}, {"type": "node", "id": 7282042560, "lat": 35.8898289, "lon": 140.66456, "tags": {"amenity": "atm", "brand": "\u5e38\u967d\u9280\u884c", "brand:en": "Joyo Bank", "brand:ja": "\u5e38\u967d\u9280\u884c", "brand:wikidata": "Q6297774", "operator": "\u5e38\u967d\u9280\u884c", "operator:wikidata": "Q6297774"}}, {"type": "node", "id": 9483057172, "lat": 35.8512999, "lon": 140.6064391, "tags": {"alt_name:en": "Japan Agricultural Bank", "amenity": "atm", "branch": "\u5c0f\u898b\u5ddd\u652f\u5e97", "brand": "JA\u30d0\u30f3\u30af", "brand:en": "JA Bank", "brand:ja": "JA\u30d0\u30f3\u30af", "brand:wikidata": "Q10854594", "brand:wikipedia": "ja:JA\u30d0\u30f3\u30af", "name": "JA\u30d0\u30f3\u30af", "name:en": "JA Bank", "name:ja": "JA\u30d0\u30f3\u30af", "operator": "JA\u30d0\u30f3\u30af", "operator:wikidata": "Q10854594", "operator:wikipedia": "ja:JA\u30d0\u30f3\u30af"}}, {"type": "node", "id": 9674791169, "lat": 35.8440418, "lon": 140.6009758, "tags": {"alt_name:en": "\u03b1BANK", "amenity": "atm", "brand": "\u4eac\u8449\u9280\u884c", "brand:en": "Keiyo Bank", "brand:ja": "\u4eac\u8449\u9280\u884c", "brand:wikidata": "Q11374734", "brand:wikipedia": "ja:\u4eac\u8449\u9280\u884c", "name": "\u4eac\u8449\u9280\u884c", "name:en": "Keiyo Bank", "name:ja": "\u4eac\u8449\u9280\u884c", "operator": "\u4eac\u8449\u9280\u884c", "operator:wikidata": "Q11374734", "operator:wikipedia": "ja:\u4eac\u8449\u9280\u884c"}}, {"type": "node", "id": 10816479010, "lat": 35.8398565, "lon": 140.6590292, "tags": {"amenity": "atm", "branch": "\u7b39\u5ddd\u652f\u5e97", "brand": "\u5343\u8449\u9280\u884c", "brand:en": "The Chiba Bank", "brand:ja": "\u5343\u8449\u9280\u884c", "brand:wikidata": "Q1071712", "name": "\u3061\u3070\u304e\u3093", "name:en": "Chiba Bank", "name:ja": "\u5343\u8449\u9280\u884c", "operator": "\u5343\u8449\u9280\u884c", "operator:wikidata": "Q1071712"}}]}