{"version": 0.6, "generator": "Overpass API 0.7.62.11 87bfad18", "osm3s": {"timestamp_osm_base": "2026-05-06T10:57:40Z", "copyright": "The data included in this document is from www.openstreetmap.org. The data is made available under ODbL."}, "elements": [{"type": "node", "id": 745255641, "lat": 35.9564812, "lon": 140.3172906, "tags": {"amenity": "atm"}}, {"type": "node", "id": 1574098743, "lat": 35.8958325, "lon": 140.410757, "tags": {"amenity": "atm", "fee": "JA\u304b\u3068\u308a\u795e\u5d0e", "source": "survey, bing"}}, {"type": "node", "id": 5363855882, "lat": 35.8997688, "lon": 140.4911925, "tags": {"amenity": "atm", "currency:JPY": "yes", "drive_through": "no", "operator": "\u4e09\u83f1\u6771\u4eacUFJ\u9280\u884c"}}, {"type": "node", "id": 5365094754, "lat": 35.80282, "lon": 140.5756531, "tags": {"amenity": "atm", "currency:JPY": "yes", "drive_through": "no", "name": "\u4eac\u8449\u9280\u884c\u9999\u53d6\u5e02\u5c71\u7530\u533a\u4e8b\u52d9\u6240ATM", "operator": "\u4eac\u8449\u9280\u884c"}}, {"type": "node", "id": 9365132917, "lat": 35.8133592, "lon": 140.403601, "tags": {"amenity": "atm", "brand": "\u30bb\u30d6\u30f3\u9280\u884c", "brand:en": "Seven Bank", "brand:ja": "\u30bb\u30d6\u30f3\u9280\u884c", "brand:wikidata": "Q7457182", "brand:wikipedia": "ja:\u30bb\u30d6\u30f3\u9280\u884c", "indoor": "yes", "name": "\u30bb\u30d6\u30f3\u9280\u884c", "name:en": "Seven Bank", "name:ja": "\u30bb\u30d6\u30f3\u9280\u884c", "operator": "\u30bb\u30d6\u30f3\u9280\u884c", "operator:wikidata": "Q7457182", "operator:wikipedia": "ja:\u30bb\u30d6\u30f3\u9280\u884c"}}, {"type": "node", "id": 9365296490, "lat": 35.8128168, "lon": 140.4057893, "tags": {"amenity": "atm", "brand": "\u30bb\u30d6\u30f3\u9280\u884c", "brand:en": "Seven Bank", "brand:ja": "\u30bb\u30d6\u30f3\u9280\u884c", "brand:wikidata": "Q7457182", "brand:wikipedia": "ja:\u30bb\u30d6\u30f3\u9280\u884c", "indoor": "yes", "name": "\u30bb\u30d6\u30f3\u9280\u884c", "name:en": "Seven Bank", "name:ja": "\u30bb\u30d6\u30f3\u9280\u884c", "operator": "\u30bb\u30d6\u30f3\u9280\u884c", "operator:wikidata": "Q7457182", "operator:wikipedia": "ja:\u30bb\u30d6\u30f3\u9280\u884c"}}, {"type": "node", "id": 9583191395, "lat": 36.0970537, "lon": 140.1432331, "tags": {"alt_name:en": "Japan Agricultural Bank", "amenity": "atm", "brand": "JA\u30d0\u30f3\u30af", "brand:en": "JA Bank", "brand:ja": "JA\u30d0\u30f3\u30af", "brand:wikidata": "Q10854594", "brand:wikipedia": "ja:JA\u30d0\u30f3\u30af", "name": "JA\u30d0\u30f3\u30af", "name:en": "JA Bank", "name:ja": "JA\u30d0\u30f3\u30af", "operator": "JA\u30d0\u30f3\u30af", "operator:wikidata": "Q10854594", "operator:wikipedia": "ja:JA\u30d0\u30f3\u30af", "source": "Bing;survey"}}, {"type": "node", "id": 12149934771, "lat": 36.0778145, "lon": 140.2060346, "tags": {"amenity": "atm", "name": "JRE Bank", "operator": "JRE BANK"}}, {"type": "node", "id": 13132472216, "lat": 36.079129, "lon": 140.2039247, "tags": {"amenity": "atm", "brand": "\u3086\u3046\u3061\u3087\u9280\u884c", "brand:en": "Japan Post Bank", "brand:ja": "\u3086\u3046\u3061\u3087\u9280\u884c", "brand:wikidata": "Q907103", "check_date": "2025-09-09", "operator": "\u3086\u3046\u3061\u3087\u9280\u884c", "operator:wikidata": "Q907103"}}, {"type": "node", "id": 13200884551, "lat": 36.0075174, "lon": 140.1582668, "tags": {"amenity": "atm", "brand": "\u30bb\u30d6\u30f3\u9280\u884c", "brand:en": "Seven Bank", "brand:ja": "\u30bb\u30d6\u30f3\u9280\u884c", "brand:wikidata": "Q7457182", "check_date": "2025-10-07", "level": "1", "name": "\u30bb\u30d6\u30f3\u9280\u884c", "name:en": "Seven Bank", "name:ja": "\u30bb\u30d6\u30f3\u9280\u884c"}}]}